{"type":"FeatureCollection","features":[{"type":"Feature","geometry":{"type":"Point","coordinates":[-3.188271,55.944063]},"properties":{"location":"rush.crown.link","rgb-string":"#00ff00","marker-color":"#00ff00","marker-symbol":"lighthouse"}},{"type":"Feature","geometry":{"type":"Point","coordinates":[-3.188126,55.943793]},"properties":{"location":"cubs.trucks.help","rgb-string":"#40ff00","marker-color":"#40ff00","marker-symbol":"lighthouse"}},{"type":"Feature","geometry":{"type":"Point","coordinates":[-3.187789,55.944386]},"properties":{"location":"thank.salsa.brain","rgb-string":"#40ff00","marker-color":"#40ff00","marker-symbol":"lighthouse"}},{"type":"Feature","geometry":{"type":"Point","coordinates":[-3.187307,55.944494]},"properties":{"location":"only.fairly.rift","rgb-string":"#ffc000","marker-color":"#ffc000","marker-symbol":"danger"}},{"type":"Feature","geometry":{"type":"Point","coordinates":[-3.187018,55.943982]},"properties":{"location":"renew.ears.tend","rgb-string":"#80ff00","marker-color":"#80ff00","marker-symbol":"lighthouse"}},{"type":"Feature","geometry":{"type":"Point","coordinates":[-3.187355,55.943604]},"properties":{"location":"shut.stands.media","rgb-string":"#80ff00","marker-color":"#80ff00","marker-symbol":"lighthouse"}},{"type":"Feature","geometry":{"type":"Point","coordinates":[-3.18697,55.942688]},"properties":{"location":"strut.river.surely","rgb-string":"#ff4000","marker-color":"#ff4000","marker-symbol":"danger"}},{"type":"Feature","geometry":{"type":"Point","coordinates":[-3.186007,55.943901]},"properties":{"location":"teams.mild.played","rgb-string":"#ffc000","marker-color":"#ffc000","marker-symbol":"danger"}},{"type":"Feature","geometry":{"type":"Point","coordinates":[-3.186103,55.944251]},"properties":{"location":"organs.shape.fantastic","rgb-string":"#ff4000","marker-color":"#ff4000","marker-symbol":"danger"}},{"type":"Feature","geometry":{"type":"Point","coordinates":[-3.185525,55.943982]},"properties":{"location":"manliness.poem.cliff","rgb-string":"#ffc000","marker-color":"#ffc000","marker-symbol":"danger"}},{"type":"Feature","geometry":{"type":"Point","coordinates":[-3.185236,55.944575]},"properties":{"location":"acid.chair.butter","rgb-string":"#ff8000","marker-color":"#ff8000","marker-symbol":"danger"}},{"type":"Feature","geometry":{"type":"Point","coordinates":[-3.184899,55.944736]},"properties":{"location":"slide.leads.stores","rgb-string":"#000000","marker-color":"#000000","marker-symbol":"cross"}},{"type":"Feature","geometry":{"type":"Point","coordinates":[-3.184513,55.945302]},"properties":{"location":"settle.title.united","rgb-string":"#ff4000","marker-color":"#ff4000","marker-symbol":"danger"}},{"type":"Feature","geometry":{"type":"Point","coordinates":[-3.185621,55.945761]},"properties":{"location":"shed.desire.muddy","rgb-string":"#ff4000","marker-color":"#ff4000","marker-symbol":"danger"}},{"type":"Feature","geometry":{"type":"Point","coordinates":[-3.185814,55.94603]},"properties":{"location":"renew.slows.basket","rgb-string":"#ff0000","marker-color":"#ff0000","marker-symbol":"danger"}},{"type":"Feature","geometry":{"type":"Point","coordinates":[-3.186296,55.945761]},"properties":{"location":"posts.kicked.universally","rgb-string":"#ff4000","marker-color":"#ff4000","marker-symbol":"danger"}},{"type":"Feature","geometry":{"type":"Point","coordinates":[-3.186729,55.945168]},"properties":{"location":"dragon.bottle.crisp","rgb-string":"#ffc000","marker-color":"#ffc000","marker-symbol":"danger"}},{"type":"Feature","geometry":{"type":"Point","coordinates":[-3.188319,55.945518]},"properties":{"location":"skills.less.herb","rgb-string":"#000000","marker-color":"#000000","marker-symbol":"cross"}},{"type":"Feature","geometry":{"type":"Point","coordinates":[-3.188897,55.945707]},"properties":{"location":"stops.else.chats","rgb-string":"#ff0000","marker-color":"#ff0000","marker-symbol":"danger"}},{"type":"Feature","geometry":{"type":"Point","coordinates":[-3.189138,55.944197]},"properties":{"location":"spoon.invest.every","rgb-string":"#40ff00","marker-color":"#40ff00","marker-symbol":"lighthouse"}},{"type":"Feature","geometry":{"type":"Point","coordinates":[-3.189812,55.94409]},"properties":{"location":"cliff.asleep.wedge","rgb-string":"#40ff00","marker-color":"#40ff00","marker-symbol":"lighthouse"}},{"type":"Feature","geometry":{"type":"Point","coordinates":[-3.190294,55.943712]},"properties":{"location":"sculpture.shot.melon","rgb-string":"#40ff00","marker-color":"#40ff00","marker-symbol":"lighthouse"}},{"type":"Feature","geometry":{"type":"Point","coordinates":[-3.190727,55.943092]},"properties":{"location":"relate.chill.vest","rgb-string":"#00ff00","marker-color":"#00ff00","marker-symbol":"lighthouse"}},{"type":"Feature","geometry":{"type":"Point","coordinates":[-3.191161,55.943065]},"properties":{"location":"else.urban.museum","rgb-string":"#00ff00","marker-color":"#00ff00","marker-symbol":"lighthouse"}},{"type":"Feature","geometry":{"type":"Point","coordinates":[-3.191161,55.943362]},"properties":{"location":"meal.feed.large","rgb-string":"#40ff00","marker-color":"#40ff00","marker-symbol":"lighthouse"}},{"type":"Feature","geometry":{"type":"Point","coordinates":[-3.191113,55.943901]},"properties":{"location":"spicy.bunch.shady","rgb-string":"#00ff00","marker-color":"#00ff00","marker-symbol":"lighthouse"}},{"type":"Feature","geometry":{"type":"Point","coordinates":[-3.191065,55.94444]},"properties":{"location":"paying.crowd.weep","rgb-string":"#40ff00","marker-color":"#40ff00","marker-symbol":"lighthouse"}},{"type":"Feature","geometry":{"type":"Point","coordinates":[-3.191161,55.945976]},"properties":{"location":"simple.rust.audio","rgb-string":"#000000","marker-color":"#000000","marker-symbol":"cross"}},{"type":"Feature","geometry":{"type":"Point","coordinates":[-3.191161,55.942742]},"properties":{"location":"along.spill.limp","rgb-string":"#00ff00","marker-color":"#00ff00","marker-symbol":"lighthouse"}},{"type":"Feature","geometry":{"type":"Point","coordinates":[-3.189764,55.942661]},"properties":{"location":"hooked.shine.third","rgb-string":"#40ff00","marker-color":"#40ff00","marker-symbol":"lighthouse"}},{"type":"Feature","geometry":{"type":"Point","coordinates":[-3.188608,55.943119]},"properties":{"location":"groups.ideas.script","rgb-string":"#40ff00","marker-color":"#40ff00","marker-symbol":"lighthouse"}},{"type":"Feature","geometry":{"type":"Point","coordinates":[-3.188704,55.943389]},"properties":{"location":"system.speak.guard","rgb-string":"#00ff00","marker-color":"#00ff00","marker-symbol":"lighthouse"}},{"type":"Feature","geometry":{"type":"Point","coordinates":[-3.184947,55.943443]},"properties":{"location":"sentences.sings.modern","rgb-string":"#ffc000","marker-color":"#ffc000","marker-symbol":"danger"}},{"type":"Feature","geometry":{"type":"LineString","coordinates":[[-3.188396,55.944425],[-3.1882934,55.9441431],[-3.1881434,55.9438833],[-3.1879506,55.9441131],[-3.1878006,55.9443729],[-3.1875051,55.944425],[-3.1872232,55.9445276],[-3.1871206,55.9442457],[-3.187018,55.9439638],[-3.1872108,55.943734],[-3.1871587,55.9434385],[-3.1871066,55.9431431],[-3.187004,55.9428612],[-3.1868112,55.943091],[-3.1867086,55.9433729],[-3.1864788,55.9435657],[-3.186249,55.9437586],[-3.1859892,55.9439086],[-3.1860918,55.9441905],[-3.1858099,55.9440879],[-3.185528,55.9439853],[-3.185378,55.9442451],[-3.1852753,55.944527],[-3.1850155,55.944677],[-3.1848227,55.9449068],[-3.1846299,55.9451366],[-3.184437,55.9453664],[-3.1847189,55.945469],[-3.1850008,55.9455716],[-3.1852828,55.9456742],[-3.1855782,55.9457263],[-3.185771,55.9459562],[-3.1860529,55.9458535],[-3.1863348,55.9457509],[-3.1864848,55.9454911],[-3.1866777,55.9452613],[-3.1869596,55.9453639],[-3.1871096,55.9456237],[-3.1874096,55.9456237],[-3.187705,55.9455716],[-3.188005,55.9455716],[-3.1883005,55.9455195],[-3.1885824,55.9456222],[-3.1888643,55.9457248],[-3.1889164,55.9454293],[-3.1889685,55.9451339],[-3.1890206,55.9448384],[-3.1890727,55.944543],[-3.1891248,55.9442475],[-3.1894202,55.9441955],[-3.1897021,55.9440928],[-3.1899619,55.9439428],[-3.1902217,55.9437928],[-3.1904146,55.943563],[-3.1905646,55.9433032],[-3.1907574,55.9430734],[-3.1910574,55.9430734],[-3.19116,55.9433553],[-3.19116,55.9436553],[-3.1911079,55.9439508],[-3.1910558,55.9442462],[-3.1910558,55.9445462],[-3.1910558,55.9448462],[-3.1911079,55.9451416],[-3.1911079,55.9454416],[-3.19116,55.9457371],[-3.19116,55.9460371],[-3.19116,55.9457371],[-3.19116,55.9454371],[-3.19116,55.9451371],[-3.19116,55.9448371],[-3.19116,55.9445371],[-3.19116,55.9442371],[-3.19116,55.9439371],[-3.19116,55.9436371],[-3.19116,55.9433371],[-3.19116,55.9430371],[-3.19116,55.9427371],[-3.19086,55.9427371],[-3.19056,55.9427371],[-3.1902646,55.942685],[-3.1899646,55.942685],[-3.1896691,55.9426329],[-3.1897717,55.9429148],[-3.1894763,55.9429669],[-3.1891808,55.943019],[-3.1888854,55.9430711],[-3.18859,55.9431232],[-3.1886926,55.9434051],[-3.1883926,55.9434051],[-3.1880926,55.9434051],[-3.1877926,55.9434051],[-3.1874926,55.9434051],[-3.1871926,55.9434051],[-3.1868926,55.9434051],[-3.1865926,55.9434051],[-3.1862926,55.9434051],[-3.1859926,55.9434051],[-3.1856926,55.9434051],[-3.1853926,55.9434051],[-3.1850926,55.9434051],[-3.1853745,55.9435077],[-3.1856564,55.9436103],[-3.1859383,55.9437129],[-3.1862202,55.9438155],[-3.1865021,55.9439181],[-3.1867975,55.9439702],[-3.1870795,55.9440728],[-3.1873749,55.9441249],[-3.1876568,55.9442275],[-3.1879522,55.9442796],[-3.1882342,55.9443822]]},"properties":{}}]}